[
  {
    "city": "Sofia", 
    "lat": "42.7000", 
    "lng": "23.3300", 
    "country": "Bulgaria", 
    "iso2": "BG", 
    "admin_name": "Sofia-Grad", 
    "capital": "primary", 
    "population": "1547779", 
    "population_proper": "1276956"
  }, 
  {
    "city": "Plovdiv", 
    "lat": "42.1500", 
    "lng": "24.7500", 
    "country": "Bulgaria", 
    "iso2": "BG", 
    "admin_name": "Plovdiv", 
    "capital": "admin", 
    "population": "383540", 
    "population_proper": "383540"
  }, 
  {
    "city": "Varna", 
    "lat": "43.2167", 
    "lng": "27.9167", 
    "country": "Bulgaria", 
    "iso2": "BG", 
    "admin_name": "Varna", 
    "capital": "admin", 
    "population": "348668", 
    "population_proper": "348668"
  }, 
  {
    "city": "Burgas", 
    "lat": "42.5030", 
    "lng": "27.4702", 
    "country": "Bulgaria", 
    "iso2": "BG", 
    "admin_name": "Burgas", 
    "capital": "admin", 
    "population": "210813", 
    "population_proper": "210813"
  }, 
  {
    "city": "Ruse", 
    "lat": "43.8231", 
    "lng": "25.9539", 
    "country": "Bulgaria", 
    "iso2": "BG", 
    "admin_name": "Ruse", 
    "capital": "admin", 
    "population": "143931", 
    "population_proper": "143325"
  }, 
  {
    "city": "Stara Zagora", 
    "lat": "42.4333", 
    "lng": "25.6500", 
    "country": "Bulgaria", 
    "iso2": "BG", 
    "admin_name": "Stara Zagora", 
    "capital": "admin", 
    "population": "136475", 
    "population_proper": "136144"
  }, 
  {
    "city": "Pleven", 
    "lat": "43.4078", 
    "lng": "24.6203", 
    "country": "Bulgaria", 
    "iso2": "BG", 
    "admin_name": "Pleven", 
    "capital": "admin", 
    "population": "119596", 
    "population_proper": "119596"
  }, 
  {
    "city": "Sliven", 
    "lat": "42.6833", 
    "lng": "26.3333", 
    "country": "Bulgaria", 
    "iso2": "BG", 
    "admin_name": "Sliven", 
    "capital": "admin", 
    "population": "115241", 
    "population_proper": "89355"
  }, 
  {
    "city": "Pazardzhik", 
    "lat": "42.2000", 
    "lng": "24.3333", 
    "country": "Bulgaria", 
    "iso2": "BG", 
    "admin_name": "Pazardzhik", 
    "capital": "admin", 
    "population": "103681", 
    "population_proper": "74950"
  }, 
  {
    "city": "Pernik", 
    "lat": "42.6000", 
    "lng": "23.0333", 
    "country": "Bulgaria", 
    "iso2": "BG", 
    "admin_name": "Pernik", 
    "capital": "admin", 
    "population": "97181", 
    "population_proper": "74066"
  }, 
  {
    "city": "Dobrich", 
    "lat": "43.5667", 
    "lng": "27.8333", 
    "country": "Bulgaria", 
    "iso2": "BG", 
    "admin_name": "Dobrich", 
    "capital": "admin", 
    "population": "90419", 
    "population_proper": "89701"
  }, 
  {
    "city": "Shumen", 
    "lat": "43.2833", 
    "lng": "26.9333", 
    "country": "Bulgaria", 
    "iso2": "BG", 
    "admin_name": "Shumen", 
    "capital": "admin", 
    "population": "85410", 
    "population_proper": "82193"
  }, 
  {
    "city": "Veliko Tarnovo", 
    "lat": "43.0778", 
    "lng": "25.6167", 
    "country": "Bulgaria", 
    "iso2": "BG", 
    "admin_name": "Veliko Tarnovo", 
    "capital": "admin", 
    "population": "84801", 
    "population_proper": "66797"
  }, 
  {
    "city": "Haskovo", 
    "lat": "41.9333", 
    "lng": "25.5667", 
    "country": "Bulgaria", 
    "iso2": "BG", 
    "admin_name": "Haskovo", 
    "capital": "admin", 
    "population": "83682", 
    "population_proper": "71229"
  }, 
  {
    "city": "Blagoevgrad", 
    "lat": "42.0119", 
    "lng": "23.0897", 
    "country": "Bulgaria", 
    "iso2": "BG", 
    "admin_name": "Blagoevgrad", 
    "capital": "admin", 
    "population": "73463", 
    "population_proper": "73341"
  }, 
  {
    "city": "Yambol", 
    "lat": "42.4833", 
    "lng": "26.5000", 
    "country": "Bulgaria", 
    "iso2": "BG", 
    "admin_name": "Yambol", 
    "capital": "admin", 
    "population": "70782", 
    "population_proper": "70588"
  }, 
  {
    "city": "Kazanlak", 
    "lat": "42.6167", 
    "lng": "25.4000", 
    "country": "Bulgaria", 
    "iso2": "BG", 
    "admin_name": "Stara Zagora", 
    "capital": "", 
    "population": "66169", 
    "population_proper": "48989"
  }, 
  {
    "city": "Asenovgrad", 
    "lat": "42.0167", 
    "lng": "24.8667", 
    "country": "Bulgaria", 
    "iso2": "BG", 
    "admin_name": "Plovdiv", 
    "capital": "", 
    "population": "65962", 
    "population_proper": "58986"
  }, 
  {
    "city": "Vratsa", 
    "lat": "43.2000", 
    "lng": "23.5500", 
    "country": "Bulgaria", 
    "iso2": "BG", 
    "admin_name": "Vratsa", 
    "capital": "admin", 
    "population": "61702", 
    "population_proper": "56852"
  }, 
  {
    "city": "Kyustendil", 
    "lat": "42.2833", 
    "lng": "22.6833", 
    "country": "Bulgaria", 
    "iso2": "BG", 
    "admin_name": "Kyustendil", 
    "capital": "admin", 
    "population": "60681", 
    "population_proper": "44515"
  }, 
  {
    "city": "Gabrovo", 
    "lat": "42.8667", 
    "lng": "25.3333", 
    "country": "Bulgaria", 
    "iso2": "BG", 
    "admin_name": "Gabrovo", 
    "capital": "admin", 
    "population": "54608", 
    "population_proper": "52477"
  }, 
  {
    "city": "Targovishte", 
    "lat": "43.2500", 
    "lng": "26.5833", 
    "country": "Bulgaria", 
    "iso2": "BG", 
    "admin_name": "Targovishte", 
    "capital": "admin", 
    "population": "53041", 
    "population_proper": "39998"
  }, 
  {
    "city": "Kardzhali", 
    "lat": "41.6500", 
    "lng": "25.3667", 
    "country": "Bulgaria", 
    "iso2": "BG", 
    "admin_name": "Kardzhali", 
    "capital": "admin", 
    "population": "51841", 
    "population_proper": "51841"
  }, 
  {
    "city": "Vidin", 
    "lat": "44.0000", 
    "lng": "22.8667", 
    "country": "Bulgaria", 
    "iso2": "BG", 
    "admin_name": "Vidin", 
    "capital": "admin", 
    "population": "50274", 
    "population_proper": "45583"
  }, 
  {
    "city": "Razgrad", 
    "lat": "43.5333", 
    "lng": "26.5167", 
    "country": "Bulgaria", 
    "iso2": "BG", 
    "admin_name": "Razgrad", 
    "capital": "admin", 
    "population": "44894", 
    "population_proper": "32917"
  }, 
  {
    "city": "Svishtov", 
    "lat": "43.6167", 
    "lng": "25.3500", 
    "country": "Bulgaria", 
    "iso2": "BG", 
    "admin_name": "Veliko Tarnovo", 
    "capital": "minor", 
    "population": "44359", 
    "population_proper": "23325"
  }, 
  {
    "city": "Silistra", 
    "lat": "44.1172", 
    "lng": "27.2606", 
    "country": "Bulgaria", 
    "iso2": "BG", 
    "admin_name": "Silistra", 
    "capital": "admin", 
    "population": "43265", 
    "population_proper": "34205"
  }, 
  {
    "city": "Lovech", 
    "lat": "43.1347", 
    "lng": "24.7172", 
    "country": "Bulgaria", 
    "iso2": "BG", 
    "admin_name": "Lovech", 
    "capital": "admin", 
    "population": "40516", 
    "population_proper": "32832"
  }, 
  {
    "city": "Montana", 
    "lat": "43.4075", 
    "lng": "23.2217", 
    "country": "Bulgaria", 
    "iso2": "BG", 
    "admin_name": "Montana", 
    "capital": "admin", 
    "population": "40295", 
    "population_proper": "40044"
  }, 
  {
    "city": "Dimitrovgrad", 
    "lat": "42.0500", 
    "lng": "25.6000", 
    "country": "Bulgaria", 
    "iso2": "BG", 
    "admin_name": "Haskovo", 
    "capital": "", 
    "population": "35507", 
    "population_proper": "34990"
  }, 
  {
    "city": "Dupnitsa", 
    "lat": "42.2650", 
    "lng": "23.1185", 
    "country": "Bulgaria", 
    "iso2": "BG", 
    "admin_name": "Kyustendil", 
    "capital": "", 
    "population": "34653", 
    "population_proper": "34339"
  }, 
  {
    "city": "Smolyan", 
    "lat": "41.5833", 
    "lng": "24.7000", 
    "country": "Bulgaria", 
    "iso2": "BG", 
    "admin_name": "Smolyan", 
    "capital": "admin", 
    "population": "34465", 
    "population_proper": "28268"
  }, 
  {
    "city": "Gorna Oryahovitsa", 
    "lat": "43.1333", 
    "lng": "25.7000", 
    "country": "Bulgaria", 
    "iso2": "BG", 
    "admin_name": "Veliko Tarnovo", 
    "capital": "", 
    "population": "30413", 
    "population_proper": "30169"
  }, 
  {
    "city": "Petrich", 
    "lat": "41.3953", 
    "lng": "23.2069", 
    "country": "Bulgaria", 
    "iso2": "BG", 
    "admin_name": "Blagoevgrad", 
    "capital": "", 
    "population": "29727", 
    "population_proper": "29630"
  }, 
  {
    "city": "Gotse Delchev", 
    "lat": "41.5667", 
    "lng": "23.7333", 
    "country": "Bulgaria", 
    "iso2": "BG", 
    "admin_name": "Blagoevgrad", 
    "capital": "", 
    "population": "29585", 
    "population_proper": "20145"
  }, 
  {
    "city": "Aytos", 
    "lat": "42.7000", 
    "lng": "27.2500", 
    "country": "Bulgaria", 
    "iso2": "BG", 
    "admin_name": "Burgas", 
    "capital": "", 
    "population": "27326", 
    "population_proper": "22252"
  }, 
  {
    "city": "Omurtag", 
    "lat": "43.1000", 
    "lng": "26.4170", 
    "country": "Bulgaria", 
    "iso2": "BG", 
    "admin_name": "Targovishte", 
    "capital": "", 
    "population": "24876", 
    "population_proper": "9139"
  }, 
  {
    "city": "Velingrad", 
    "lat": "42.0167", 
    "lng": "24.0000", 
    "country": "Bulgaria", 
    "iso2": "BG", 
    "admin_name": "Pazardzhik", 
    "capital": "minor", 
    "population": "24154", 
    "population_proper": "24154"
  }, 
  {
    "city": "Isperih", 
    "lat": "43.7167", 
    "lng": "26.8333", 
    "country": "Bulgaria", 
    "iso2": "BG", 
    "admin_name": "Razgrad", 
    "capital": "", 
    "population": "22556", 
    "population_proper": "8523"
  }, 
  {
    "city": "Karlovo", 
    "lat": "42.6436", 
    "lng": "24.8072", 
    "country": "Bulgaria", 
    "iso2": "BG", 
    "admin_name": "Plovdiv", 
    "capital": "", 
    "population": "22095", 
    "population_proper": "21865"
  }, 
  {
    "city": "Lom", 
    "lat": "43.8256", 
    "lng": "23.2375", 
    "country": "Bulgaria", 
    "iso2": "BG", 
    "admin_name": "Montana", 
    "capital": "minor", 
    "population": "22075", 
    "population_proper": "21892"
  }, 
  {
    "city": "Panagyurishte", 
    "lat": "42.5000", 
    "lng": "24.1833", 
    "country": "Bulgaria", 
    "iso2": "BG", 
    "admin_name": "Pazardzhik", 
    "capital": "minor", 
    "population": "21430", 
    "population_proper": "16424"
  }, 
  {
    "city": "Botevgrad", 
    "lat": "42.9073", 
    "lng": "23.7937", 
    "country": "Bulgaria", 
    "iso2": "BG", 
    "admin_name": "Sofia", 
    "capital": "", 
    "population": "20624", 
    "population_proper": "20602"
  }, 
  {
    "city": "Peshtera", 
    "lat": "42.0333", 
    "lng": "24.3000", 
    "country": "Bulgaria", 
    "iso2": "BG", 
    "admin_name": "Pazardzhik", 
    "capital": "minor", 
    "population": "19877", 
    "population_proper": "19877"
  }, 
  {
    "city": "Rakovski", 
    "lat": "42.2884", 
    "lng": "24.9655", 
    "country": "Bulgaria", 
    "iso2": "BG", 
    "admin_name": "Plovdiv", 
    "capital": "", 
    "population": "15694", 
    "population_proper": "15694"
  }, 
  {
    "city": "Veliki Preslav", 
    "lat": "43.1667", 
    "lng": "26.8170", 
    "country": "Bulgaria", 
    "iso2": "BG", 
    "admin_name": "Shumen", 
    "capital": "", 
    "population": "14960", 
    "population_proper": "8232"
  }, 
  {
    "city": "Pomorie", 
    "lat": "42.5683", 
    "lng": "27.6167", 
    "country": "Bulgaria", 
    "iso2": "BG", 
    "admin_name": "Burgas", 
    "capital": "minor", 
    "population": "14409", 
    "population_proper": "14409"
  }, 
  {
    "city": "Lyaskovets", 
    "lat": "43.1000", 
    "lng": "25.7167", 
    "country": "Bulgaria", 
    "iso2": "BG", 
    "admin_name": "Veliko Tarnovo", 
    "capital": "", 
    "population": "13735", 
    "population_proper": "7776"
  }, 
  {
    "city": "Novi Pazar", 
    "lat": "43.3500", 
    "lng": "27.2000", 
    "country": "Bulgaria", 
    "iso2": "BG", 
    "admin_name": "Shumen", 
    "capital": "", 
    "population": "12742", 
    "population_proper": "12710"
  }, 
  {
    "city": "Provadia", 
    "lat": "43.1833", 
    "lng": "27.4333", 
    "country": "Bulgaria", 
    "iso2": "BG", 
    "admin_name": "Varna", 
    "capital": "", 
    "population": "12556", 
    "population_proper": "12419"
  }, 
  {
    "city": "Razlog", 
    "lat": "41.8833", 
    "lng": "23.4667", 
    "country": "Bulgaria", 
    "iso2": "BG", 
    "admin_name": "Blagoevgrad", 
    "capital": "", 
    "population": "12385", 
    "population_proper": "12340"
  }, 
  {
    "city": "Zlatograd", 
    "lat": "41.3833", 
    "lng": "25.1000", 
    "country": "Bulgaria", 
    "iso2": "BG", 
    "admin_name": "Smolyan", 
    "capital": "minor", 
    "population": "12087", 
    "population_proper": "6880"
  }, 
  {
    "city": "Kozloduy", 
    "lat": "43.7833", 
    "lng": "23.7333", 
    "country": "Bulgaria", 
    "iso2": "BG", 
    "admin_name": "Vratsa", 
    "capital": "minor", 
    "population": "12067", 
    "population_proper": "11940"
  }, 
  {
    "city": "Kostinbrod", 
    "lat": "42.8167", 
    "lng": "23.2167", 
    "country": "Bulgaria", 
    "iso2": "BG", 
    "admin_name": "Sofia", 
    "capital": "", 
    "population": "11432", 
    "population_proper": "11411"
  }, 
  {
    "city": "Bankya", 
    "lat": "42.7000", 
    "lng": "23.1333", 
    "country": "Bulgaria", 
    "iso2": "BG", 
    "admin_name": "Sofia-Grad", 
    "capital": "", 
    "population": "11358", 
    "population_proper": "11358"
  }, 
  {
    "city": "Stamboliyski", 
    "lat": "42.1333", 
    "lng": "24.5333", 
    "country": "Bulgaria", 
    "iso2": "BG", 
    "admin_name": "Plovdiv", 
    "capital": "", 
    "population": "11327", 
    "population_proper": "11282"
  }, 
  {
    "city": "Etropole", 
    "lat": "42.8333", 
    "lng": "24.0000", 
    "country": "Bulgaria", 
    "iso2": "BG", 
    "admin_name": "Sofia", 
    "capital": "", 
    "population": "10394", 
    "population_proper": "10316"
  }, 
  {
    "city": "Devnya", 
    "lat": "43.2167", 
    "lng": "27.5667", 
    "country": "Bulgaria", 
    "iso2": "BG", 
    "admin_name": "Varna", 
    "capital": "", 
    "population": "8915", 
    "population_proper": "8905"
  }, 
  {
    "city": "Rakitovo", 
    "lat": "41.9833", 
    "lng": "24.0833", 
    "country": "Bulgaria", 
    "iso2": "BG", 
    "admin_name": "Pazardzhik", 
    "capital": "minor", 
    "population": "8651", 
    "population_proper": "8638"
  }, 
  {
    "city": "Sopot", 
    "lat": "42.6500", 
    "lng": "24.7500", 
    "country": "Bulgaria", 
    "iso2": "BG", 
    "admin_name": "Plovdiv", 
    "capital": "", 
    "population": "8595", 
    "population_proper": "8595"
  }, 
  {
    "city": "Septemvri", 
    "lat": "42.2167", 
    "lng": "24.1000", 
    "country": "Bulgaria", 
    "iso2": "BG", 
    "admin_name": "Pazardzhik", 
    "capital": "minor", 
    "population": "8197", 
    "population_proper": "8167"
  }, 
  {
    "city": "Krichim", 
    "lat": "42.0500", 
    "lng": "24.4667", 
    "country": "Bulgaria", 
    "iso2": "BG", 
    "admin_name": "Plovdiv", 
    "capital": "", 
    "population": "8129", 
    "population_proper": "8129"
  }, 
  {
    "city": "Byala", 
    "lat": "43.4500", 
    "lng": "25.7333", 
    "country": "Bulgaria", 
    "iso2": "BG", 
    "admin_name": "Ruse", 
    "capital": "", 
    "population": "8087", 
    "population_proper": "8087"
  }, 
  {
    "city": "Aksakovo", 
    "lat": "43.2500", 
    "lng": "27.8167", 
    "country": "Bulgaria", 
    "iso2": "BG", 
    "admin_name": "Varna", 
    "capital": "", 
    "population": "8064", 
    "population_proper": "8004"
  }, 
  {
    "city": "Beloslav", 
    "lat": "43.1833", 
    "lng": "27.7000", 
    "country": "Bulgaria", 
    "iso2": "BG", 
    "admin_name": "Varna", 
    "capital": "minor", 
    "population": "7689", 
    "population_proper": "7620"
  }, 
  {
    "city": "Slivnitsa", 
    "lat": "42.8500", 
    "lng": "23.0333", 
    "country": "Bulgaria", 
    "iso2": "BG", 
    "admin_name": "Sofia", 
    "capital": "minor", 
    "population": "7131", 
    "population_proper": "7063"
  }, 
  {
    "city": "Elin Pelin", 
    "lat": "42.6667", 
    "lng": "23.6000", 
    "country": "Bulgaria", 
    "iso2": "BG", 
    "admin_name": "Sofia", 
    "capital": "", 
    "population": "7113", 
    "population_proper": "7097"
  }, 
  {
    "city": "Madan", 
    "lat": "41.5000", 
    "lng": "24.9500", 
    "country": "Bulgaria", 
    "iso2": "BG", 
    "admin_name": "Smolyan", 
    "capital": "minor", 
    "population": "6597", 
    "population_proper": "6597"
  }, 
  {
    "city": "Aydemir", 
    "lat": "44.0978", 
    "lng": "27.1691", 
    "country": "Bulgaria", 
    "iso2": "BG", 
    "admin_name": "Silistra", 
    "capital": "", 
    "population": "6196", 
    "population_proper": "6177"
  }, 
  {
    "city": "Devin", 
    "lat": "41.7333", 
    "lng": "24.4000", 
    "country": "Bulgaria", 
    "iso2": "BG", 
    "admin_name": "Smolyan", 
    "capital": "minor", 
    "population": "6129", 
    "population_proper": "6079"
  }, 
  {
    "city": "Lozen", 
    "lat": "42.6000", 
    "lng": "23.4833", 
    "country": "Bulgaria", 
    "iso2": "BG", 
    "admin_name": "Sofia-Grad", 
    "capital": "", 
    "population": "6014", 
    "population_proper": "6014"
  }, 
  {
    "city": "Varshets", 
    "lat": "43.1830", 
    "lng": "23.2830", 
    "country": "Bulgaria", 
    "iso2": "BG", 
    "admin_name": "Montana", 
    "capital": "minor", 
    "population": "5765", 
    "population_proper": "5742"
  }, 
  {
    "city": "Saedinenie", 
    "lat": "42.2667", 
    "lng": "24.5500", 
    "country": "Bulgaria", 
    "iso2": "BG", 
    "admin_name": "Plovdiv", 
    "capital": "", 
    "population": "5621", 
    "population_proper": "5621"
  }, 
  {
    "city": "Bistritsa", 
    "lat": "42.5861", 
    "lng": "23.3600", 
    "country": "Bulgaria", 
    "iso2": "BG", 
    "admin_name": "Sofia-Grad", 
    "capital": "", 
    "population": "5237", 
    "population_proper": "5237"
  }, 
  {
    "city": "Bozhurishte", 
    "lat": "42.7625", 
    "lng": "23.1997", 
    "country": "Bulgaria", 
    "iso2": "BG", 
    "admin_name": "Sofia", 
    "capital": "", 
    "population": "5225", 
    "population_proper": "5225"
  }, 
  {
    "city": "Suvorovo", 
    "lat": "43.3333", 
    "lng": "27.6000", 
    "country": "Bulgaria", 
    "iso2": "BG", 
    "admin_name": "Varna", 
    "capital": "", 
    "population": "5059", 
    "population_proper": "5049"
  }, 
  {
    "city": "Perushtitsa", 
    "lat": "42.0500", 
    "lng": "24.5500", 
    "country": "Bulgaria", 
    "iso2": "BG", 
    "admin_name": "Plovdiv", 
    "capital": "", 
    "population": "5026", 
    "population_proper": "5018"
  }, 
  {
    "city": "Dolna Banya", 
    "lat": "42.2833", 
    "lng": "23.7667", 
    "country": "Bulgaria", 
    "iso2": "BG", 
    "admin_name": "Sofia", 
    "capital": "", 
    "population": "4716", 
    "population_proper": "4687"
  }, 
  {
    "city": "Vetovo", 
    "lat": "43.7000", 
    "lng": "26.2667", 
    "country": "Bulgaria", 
    "iso2": "BG", 
    "admin_name": "Ruse", 
    "capital": "", 
    "population": "4540", 
    "population_proper": "4540"
  }, 
  {
    "city": "Kazichene", 
    "lat": "42.6667", 
    "lng": "23.4667", 
    "country": "Bulgaria", 
    "iso2": "BG", 
    "admin_name": "Sofia-Grad", 
    "capital": "", 
    "population": "4503", 
    "population_proper": "4503"
  }, 
  {
    "city": "Ignatievo", 
    "lat": "43.2483", 
    "lng": "27.7783", 
    "country": "Bulgaria", 
    "iso2": "BG", 
    "admin_name": "Varna", 
    "capital": "", 
    "population": "4368", 
    "population_proper": "4358"
  }, 
  {
    "city": "Kostandovo", 
    "lat": "42.0000", 
    "lng": "24.0167", 
    "country": "Bulgaria", 
    "iso2": "BG", 
    "admin_name": "Pazardzhik", 
    "capital": "", 
    "population": "4336", 
    "population_proper": "4336"
  }, 
  {
    "city": "Bukovlak", 
    "lat": "43.4439", 
    "lng": "24.6156", 
    "country": "Bulgaria", 
    "iso2": "BG", 
    "admin_name": "Pleven", 
    "capital": "", 
    "population": "4335", 
    "population_proper": "4335"
  }, 
  {
    "city": "Koynare", 
    "lat": "43.3572", 
    "lng": "24.1444", 
    "country": "Bulgaria", 
    "iso2": "BG", 
    "admin_name": "Pleven", 
    "capital": "", 
    "population": "4251", 
    "population_proper": "4231"
  }, 
  {
    "city": "Slavyanovo", 
    "lat": "43.4667", 
    "lng": "24.8667", 
    "country": "Bulgaria", 
    "iso2": "BG", 
    "admin_name": "Pleven", 
    "capital": "", 
    "population": "4137", 
    "population_proper": "4105"
  }, 
  {
    "city": "Kalipetrovo", 
    "lat": "44.0861", 
    "lng": "27.2505", 
    "country": "Bulgaria", 
    "iso2": "BG", 
    "admin_name": "Silistra", 
    "capital": "", 
    "population": "4068", 
    "population_proper": "4043"
  }, 
  {
    "city": "Trud", 
    "lat": "42.2321", 
    "lng": "24.7246", 
    "country": "Bulgaria", 
    "iso2": "BG", 
    "admin_name": "Plovdiv", 
    "capital": "", 
    "population": "4067", 
    "population_proper": "4067"
  }, 
  {
    "city": "Sveti Vlas", 
    "lat": "42.7167", 
    "lng": "27.7667", 
    "country": "Bulgaria", 
    "iso2": "BG", 
    "admin_name": "Burgas", 
    "capital": "", 
    "population": "4055", 
    "population_proper": "4055"
  }, 
  {
    "city": "Sapareva Banya", 
    "lat": "42.2833", 
    "lng": "23.2667", 
    "country": "Bulgaria", 
    "iso2": "BG", 
    "admin_name": "Kyustendil", 
    "capital": "", 
    "population": "3985", 
    "population_proper": "3950"
  }, 
  {
    "city": "Malo Konare", 
    "lat": "42.1990", 
    "lng": "24.4312", 
    "country": "Bulgaria", 
    "iso2": "BG", 
    "admin_name": "Pazardzhik", 
    "capital": "", 
    "population": "3876", 
    "population_proper": "3856"
  }, 
  {
    "city": "Varbitsa", 
    "lat": "42.9950", 
    "lng": "26.6731", 
    "country": "Bulgaria", 
    "iso2": "BG", 
    "admin_name": "Shumen", 
    "capital": "", 
    "population": "3837", 
    "population_proper": "3837"
  }, 
  {
    "city": "Marten", 
    "lat": "43.9167", 
    "lng": "26.0833", 
    "country": "Bulgaria", 
    "iso2": "BG", 
    "admin_name": "Ruse", 
    "capital": "", 
    "population": "3679", 
    "population_proper": "3650"
  }, 
  {
    "city": "Debelets", 
    "lat": "43.0436", 
    "lng": "25.6208", 
    "country": "Bulgaria", 
    "iso2": "BG", 
    "admin_name": "Veliko Tarnovo", 
    "capital": "", 
    "population": "3678", 
    "population_proper": "3637"
  }, 
  {
    "city": "Vladaya", 
    "lat": "42.6333", 
    "lng": "23.2000", 
    "country": "Bulgaria", 
    "iso2": "BG", 
    "admin_name": "Sofia-Grad", 
    "capital": "", 
    "population": "3621", 
    "population_proper": "3621"
  }, 
  {
    "city": "Parvenets", 
    "lat": "42.0745", 
    "lng": "24.6630", 
    "country": "Bulgaria", 
    "iso2": "BG", 
    "admin_name": "Plovdiv", 
    "capital": "", 
    "population": "3584", 
    "population_proper": "3584"
  }, 
  {
    "city": "Sarnitsa", 
    "lat": "41.7333", 
    "lng": "24.0333", 
    "country": "Bulgaria", 
    "iso2": "BG", 
    "admin_name": "Pazardzhik", 
    "capital": "minor", 
    "population": "3523", 
    "population_proper": "3511"
  }, 
  {
    "city": "Rudozem", 
    "lat": "41.4833", 
    "lng": "24.8500", 
    "country": "Bulgaria", 
    "iso2": "BG", 
    "admin_name": "Smolyan", 
    "capital": "minor", 
    "population": "3494", 
    "population_proper": "3466"
  }, 
  {
    "city": "Topolchane", 
    "lat": "42.6513", 
    "lng": "26.4278", 
    "country": "Bulgaria", 
    "iso2": "BG", 
    "admin_name": "Sliven", 
    "capital": "", 
    "population": "3354", 
    "population_proper": "3354"
  }, 
  {
    "city": "Brestovitsa", 
    "lat": "42.0839", 
    "lng": "24.5920", 
    "country": "Bulgaria", 
    "iso2": "BG", 
    "admin_name": "Plovdiv", 
    "capital": "", 
    "population": "3318", 
    "population_proper": "3318"
  }, 
  {
    "city": "Gulyantsi", 
    "lat": "43.6333", 
    "lng": "24.7000", 
    "country": "Bulgaria", 
    "iso2": "BG", 
    "admin_name": "Pleven", 
    "capital": "minor", 
    "population": "3202", 
    "population_proper": "3179"
  }, 
  {
    "city": "Nikolaevo", 
    "lat": "42.6333", 
    "lng": "25.8000", 
    "country": "Bulgaria", 
    "iso2": "BG", 
    "admin_name": "Stara Zagora", 
    "capital": "", 
    "population": "3147", 
    "population_proper": "3147"
  }, 
  {
    "city": "Rogosh", 
    "lat": "42.1818", 
    "lng": "24.8646", 
    "country": "Bulgaria", 
    "iso2": "BG", 
    "admin_name": "Plovdiv", 
    "capital": "", 
    "population": "3126", 
    "population_proper": "3126"
  }, 
  {
    "city": "Kran", 
    "lat": "42.6669", 
    "lng": "25.3831", 
    "country": "Bulgaria", 
    "iso2": "BG", 
    "admin_name": "Stara Zagora", 
    "capital": "", 
    "population": "3121", 
    "population_proper": "3074"
  }, 
  {
    "city": "Banya", 
    "lat": "42.5500", 
    "lng": "24.8333", 
    "country": "Bulgaria", 
    "iso2": "BG", 
    "admin_name": "Plovdiv", 
    "capital": "", 
    "population": "3083", 
    "population_proper": "3083"
  }, 
  {
    "city": "Topoli", 
    "lat": "43.2183", 
    "lng": "27.8214", 
    "country": "Bulgaria", 
    "iso2": "BG", 
    "admin_name": "Varna", 
    "capital": "", 
    "population": "3058", 
    "population_proper": "3046"
  }, 
  {
    "city": "Pancharevo", 
    "lat": "42.5708", 
    "lng": "23.4397", 
    "country": "Bulgaria", 
    "iso2": "BG", 
    "admin_name": "Sofia-Grad", 
    "capital": "", 
    "population": "3042", 
    "population_proper": "3042"
  }, 
  {
    "city": "Kamenar", 
    "lat": "43.2493", 
    "lng": "27.8999", 
    "country": "Bulgaria", 
    "iso2": "BG", 
    "admin_name": "Varna", 
    "capital": "", 
    "population": "3040", 
    "population_proper": "3040"
  }, 
  {
    "city": "Gurkovo", 
    "lat": "42.6572", 
    "lng": "25.7961", 
    "country": "Bulgaria", 
    "iso2": "BG", 
    "admin_name": "Stara Zagora", 
    "capital": "", 
    "population": "3023", 
    "population_proper": "3011"
  }, 
  {
    "city": "Ivaylo", 
    "lat": "42.2249", 
    "lng": "24.3304", 
    "country": "Bulgaria", 
    "iso2": "BG", 
    "admin_name": "Pazardzhik", 
    "capital": "", 
    "population": "3014", 
    "population_proper": "3014"
  }, 
  {
    "city": "Sotirya", 
    "lat": "42.6909", 
    "lng": "26.4035", 
    "country": "Bulgaria", 
    "iso2": "BG", 
    "admin_name": "Sliven", 
    "capital": "", 
    "population": "2942", 
    "population_proper": "2942"
  }, 
  {
    "city": "Kableshkovo", 
    "lat": "42.6500", 
    "lng": "27.5667", 
    "country": "Bulgaria", 
    "iso2": "BG", 
    "admin_name": "Burgas", 
    "capital": "", 
    "population": "2914", 
    "population_proper": "2894"
  }, 
  {
    "city": "Ruen", 
    "lat": "42.7998", 
    "lng": "27.2822", 
    "country": "Bulgaria", 
    "iso2": "BG", 
    "admin_name": "Burgas", 
    "capital": "", 
    "population": "2911", 
    "population_proper": "2911"
  }, 
  {
    "city": "Vetren", 
    "lat": "42.2667", 
    "lng": "24.0500", 
    "country": "Bulgaria", 
    "iso2": "BG", 
    "admin_name": "Pazardzhik", 
    "capital": "", 
    "population": "2888", 
    "population_proper": "2888"
  }, 
  {
    "city": "Dolna Oryahovitsa", 
    "lat": "43.1564", 
    "lng": "25.7392", 
    "country": "Bulgaria", 
    "iso2": "BG", 
    "admin_name": "Veliko Tarnovo", 
    "capital": "", 
    "population": "2709", 
    "population_proper": "2696"
  }, 
  {
    "city": "Buhovo", 
    "lat": "42.7667", 
    "lng": "23.5667", 
    "country": "Bulgaria", 
    "iso2": "BG", 
    "admin_name": "Sofia-Grad", 
    "capital": "", 
    "population": "2675", 
    "population_proper": "2644"
  }, 
  {
    "city": "Kalofer", 
    "lat": "42.6167", 
    "lng": "24.9833", 
    "country": "Bulgaria", 
    "iso2": "BG", 
    "admin_name": "Plovdiv", 
    "capital": "", 
    "population": "2668", 
    "population_proper": "2642"
  }, 
  {
    "city": "Voluyak", 
    "lat": "42.7727", 
    "lng": "23.2429", 
    "country": "Bulgaria", 
    "iso2": "BG", 
    "admin_name": "Sofia-Grad", 
    "capital": "", 
    "population": "2659", 
    "population_proper": "2659"
  }, 
  {
    "city": "Kalekovets", 
    "lat": "42.2364", 
    "lng": "24.8238", 
    "country": "Bulgaria", 
    "iso2": "BG", 
    "admin_name": "Plovdiv", 
    "capital": "", 
    "population": "2651", 
    "population_proper": "2641"
  }, 
  {
    "city": "German", 
    "lat": "42.6167", 
    "lng": "23.4167", 
    "country": "Bulgaria", 
    "iso2": "BG", 
    "admin_name": "Sofia-Grad", 
    "capital": "", 
    "population": "2649", 
    "population_proper": "2649"
  }, 
  {
    "city": "Nikolovo", 
    "lat": "43.8573", 
    "lng": "26.0929", 
    "country": "Bulgaria", 
    "iso2": "BG", 
    "admin_name": "Ruse", 
    "capital": "", 
    "population": "2640", 
    "population_proper": "2615"
  }, 
  {
    "city": "Ravda", 
    "lat": "42.6434", 
    "lng": "27.6783", 
    "country": "Bulgaria", 
    "iso2": "BG", 
    "admin_name": "Burgas", 
    "capital": "", 
    "population": "2615", 
    "population_proper": "2615"
  }, 
  {
    "city": "Glozhene", 
    "lat": "43.6892", 
    "lng": "23.8081", 
    "country": "Bulgaria", 
    "iso2": "BG", 
    "admin_name": "Vratsa", 
    "capital": "", 
    "population": "2612", 
    "population_proper": "2612"
  }, 
  {
    "city": "Novo Selo", 
    "lat": "42.1043", 
    "lng": "24.4835", 
    "country": "Bulgaria", 
    "iso2": "BG", 
    "admin_name": "Plovdiv", 
    "capital": "", 
    "population": "2578", 
    "population_proper": "2578"
  }, 
  {
    "city": "Kurtovo Konare", 
    "lat": "42.0930", 
    "lng": "24.4998", 
    "country": "Bulgaria", 
    "iso2": "BG", 
    "admin_name": "Plovdiv", 
    "capital": "", 
    "population": "2553", 
    "population_proper": "2543"
  }, 
  {
    "city": "Ablanitsa", 
    "lat": "41.5364", 
    "lng": "23.9358", 
    "country": "Bulgaria", 
    "iso2": "BG", 
    "admin_name": "Blagoevgrad", 
    "capital": "", 
    "population": "2553", 
    "population_proper": "2553"
  }, 
  {
    "city": "Skutare", 
    "lat": "42.1782", 
    "lng": "24.8417", 
    "country": "Bulgaria", 
    "iso2": "BG", 
    "admin_name": "Plovdiv", 
    "capital": "", 
    "population": "2524", 
    "population_proper": "2524"
  }, 
  {
    "city": "Sadovo", 
    "lat": "42.1330", 
    "lng": "24.9330", 
    "country": "Bulgaria", 
    "iso2": "BG", 
    "admin_name": "Plovdiv", 
    "capital": "", 
    "population": "2494", 
    "population_proper": "2494"
  }, 
  {
    "city": "Chepintsi", 
    "lat": "42.7578", 
    "lng": "23.4256", 
    "country": "Bulgaria", 
    "iso2": "BG", 
    "admin_name": "Sofia-Grad", 
    "capital": "", 
    "population": "2437", 
    "population_proper": "2437"
  }, 
  {
    "city": "Parvomaytsi", 
    "lat": "43.1530", 
    "lng": "25.6521", 
    "country": "Bulgaria", 
    "iso2": "BG", 
    "admin_name": "Veliko Tarnovo", 
    "capital": "", 
    "population": "2436", 
    "population_proper": "2419"
  }, 
  {
    "city": "Draganovo", 
    "lat": "43.2228", 
    "lng": "25.7468", 
    "country": "Bulgaria", 
    "iso2": "BG", 
    "admin_name": "Veliko Tarnovo", 
    "capital": "", 
    "population": "2412", 
    "population_proper": "2405"
  }, 
  {
    "city": "Kilifarevo", 
    "lat": "42.9833", 
    "lng": "25.6333", 
    "country": "Bulgaria", 
    "iso2": "BG", 
    "admin_name": "Veliko Tarnovo", 
    "capital": "", 
    "population": "2374", 
    "population_proper": "2323"
  }, 
  {
    "city": "Ognyanovo", 
    "lat": "42.1475", 
    "lng": "24.4139", 
    "country": "Bulgaria", 
    "iso2": "BG", 
    "admin_name": "Pazardzhik", 
    "capital": "", 
    "population": "2372", 
    "population_proper": "2368"
  }, 
  {
    "city": "Valkosel", 
    "lat": "41.5290", 
    "lng": "23.9894", 
    "country": "Bulgaria", 
    "iso2": "BG", 
    "admin_name": "Blagoevgrad", 
    "capital": "", 
    "population": "2358", 
    "population_proper": "2350"
  }, 
  {
    "city": "Rakovski", 
    "lat": "43.6011", 
    "lng": "26.4641", 
    "country": "Bulgaria", 
    "iso2": "BG", 
    "admin_name": "Razgrad", 
    "capital": "", 
    "population": "2332", 
    "population_proper": "2332"
  }, 
  {
    "city": "Glavinitsa", 
    "lat": "42.1574", 
    "lng": "24.3088", 
    "country": "Bulgaria", 
    "iso2": "BG", 
    "admin_name": "Pazardzhik", 
    "capital": "", 
    "population": "2253", 
    "population_proper": "2243"
  }, 
  {
    "city": "Bregovo", 
    "lat": "44.1500", 
    "lng": "22.6500", 
    "country": "Bulgaria", 
    "iso2": "BG", 
    "admin_name": "Vidin", 
    "capital": "minor", 
    "population": "2231", 
    "population_proper": "2180"
  }, 
  {
    "city": "Svetovrachane", 
    "lat": "42.7819", 
    "lng": "23.3838", 
    "country": "Bulgaria", 
    "iso2": "BG", 
    "admin_name": "Sofia-Grad", 
    "capital": "", 
    "population": "2205", 
    "population_proper": "2205"
  }, 
  {
    "city": "Aheloy", 
    "lat": "42.6489", 
    "lng": "27.6481", 
    "country": "Bulgaria", 
    "iso2": "BG", 
    "admin_name": "Burgas", 
    "capital": "", 
    "population": "2162", 
    "population_proper": "2162"
  }, 
  {
    "city": "Krushare", 
    "lat": "42.5629", 
    "lng": "26.3822", 
    "country": "Bulgaria", 
    "iso2": "BG", 
    "admin_name": "Sliven", 
    "capital": "", 
    "population": "2150", 
    "population_proper": "2140"
  }, 
  {
    "city": "Startsevo", 
    "lat": "41.4269", 
    "lng": "25.0568", 
    "country": "Bulgaria", 
    "iso2": "BG", 
    "admin_name": "Smolyan", 
    "capital": "", 
    "population": "2121", 
    "population_proper": "2094"
  }, 
  {
    "city": "Gradina", 
    "lat": "42.1472", 
    "lng": "25.2080", 
    "country": "Bulgaria", 
    "iso2": "BG", 
    "admin_name": "Plovdiv", 
    "capital": "", 
    "population": "2106", 
    "population_proper": "2106"
  }, 
  {
    "city": "Obzor", 
    "lat": "42.8167", 
    "lng": "27.8833", 
    "country": "Bulgaria", 
    "iso2": "BG", 
    "admin_name": "Burgas", 
    "capital": "", 
    "population": "2094", 
    "population_proper": "2094"
  }, 
  {
    "city": "Batanovtsi", 
    "lat": "42.6000", 
    "lng": "22.9500", 
    "country": "Bulgaria", 
    "iso2": "BG", 
    "admin_name": "Pernik", 
    "capital": "", 
    "population": "2084", 
    "population_proper": "2084"
  }, 
  {
    "city": "Tsaratsovo", 
    "lat": "42.2027", 
    "lng": "24.6875", 
    "country": "Bulgaria", 
    "iso2": "BG", 
    "admin_name": "Plovdiv", 
    "capital": "", 
    "population": "2069", 
    "population_proper": "2038"
  }, 
  {
    "city": "Borovo", 
    "lat": "43.5000", 
    "lng": "25.8000", 
    "country": "Bulgaria", 
    "iso2": "BG", 
    "admin_name": "Ruse", 
    "capital": "minor", 
    "population": "2031", 
    "population_proper": "1992"
  }, 
  {
    "city": "Voyvodinovo", 
    "lat": "42.1999", 
    "lng": "24.7942", 
    "country": "Bulgaria", 
    "iso2": "BG", 
    "admin_name": "Plovdiv", 
    "capital": "", 
    "population": "2021", 
    "population_proper": "2000"
  }, 
  {
    "city": "Chernogorovo", 
    "lat": "42.2720", 
    "lng": "24.4011", 
    "country": "Bulgaria", 
    "iso2": "BG", 
    "admin_name": "Pazardzhik", 
    "capital": "", 
    "population": "1931", 
    "population_proper": "1913"
  }, 
  {
    "city": "Balgarovo", 
    "lat": "42.6167", 
    "lng": "27.3000", 
    "country": "Bulgaria", 
    "iso2": "BG", 
    "admin_name": "Burgas", 
    "capital": "", 
    "population": "1928", 
    "population_proper": "1921"
  }, 
  {
    "city": "Petarch", 
    "lat": "42.8437", 
    "lng": "23.1480", 
    "country": "Bulgaria", 
    "iso2": "BG", 
    "admin_name": "Sofia", 
    "capital": "", 
    "population": "1914", 
    "population_proper": "1914"
  }, 
  {
    "city": "Kokalyane", 
    "lat": "42.5833", 
    "lng": "23.4167", 
    "country": "Bulgaria", 
    "iso2": "BG", 
    "admin_name": "Sofia-Grad", 
    "capital": "", 
    "population": "1864", 
    "population_proper": "1854"
  }, 
  {
    "city": "Dragichevo", 
    "lat": "42.6043", 
    "lng": "23.1391", 
    "country": "Bulgaria", 
    "iso2": "BG", 
    "admin_name": "Sofia-Grad", 
    "capital": "", 
    "population": "1837", 
    "population_proper": "1837"
  }, 
  {
    "city": "Yahinovo", 
    "lat": "42.2888", 
    "lng": "23.1423", 
    "country": "Bulgaria", 
    "iso2": "BG", 
    "admin_name": "Kyustendil", 
    "capital": "", 
    "population": "1823", 
    "population_proper": "1798"
  }, 
  {
    "city": "Ostrovo", 
    "lat": "43.6853", 
    "lng": "26.6070", 
    "country": "Bulgaria", 
    "iso2": "BG", 
    "admin_name": "Razgrad", 
    "capital": "", 
    "population": "1820", 
    "population_proper": "1809"
  }, 
  {
    "city": "Mokrishte", 
    "lat": "42.1765", 
    "lng": "24.2936", 
    "country": "Bulgaria", 
    "iso2": "BG", 
    "admin_name": "Pazardzhik", 
    "capital": "", 
    "population": "1815", 
    "population_proper": "1802"
  }, 
  {
    "city": "Kraynitsi", 
    "lat": "42.3199", 
    "lng": "23.2012", 
    "country": "Bulgaria", 
    "iso2": "BG", 
    "admin_name": "Kyustendil", 
    "capital": "", 
    "population": "1797", 
    "population_proper": "1777"
  }, 
  {
    "city": "Kostievo", 
    "lat": "42.1790", 
    "lng": "24.6235", 
    "country": "Bulgaria", 
    "iso2": "BG", 
    "admin_name": "Plovdiv", 
    "capital": "", 
    "population": "1789", 
    "population_proper": "1789"
  }, 
  {
    "city": "Resen", 
    "lat": "43.1958", 
    "lng": "25.5591", 
    "country": "Bulgaria", 
    "iso2": "BG", 
    "admin_name": "Veliko Tarnovo", 
    "capital": "", 
    "population": "1777", 
    "population_proper": "1751"
  }, 
  {
    "city": "Aleksandrovo", 
    "lat": "43.2631", 
    "lng": "24.9403", 
    "country": "Bulgaria", 
    "iso2": "BG", 
    "admin_name": "Lovech", 
    "capital": "", 
    "population": "1777", 
    "population_proper": "1774"
  }, 
  {
    "city": "Sinitovo", 
    "lat": "42.1480", 
    "lng": "24.3765", 
    "country": "Bulgaria", 
    "iso2": "BG", 
    "admin_name": "Pazardzhik", 
    "capital": "", 
    "population": "1768", 
    "population_proper": "1768"
  }, 
  {
    "city": "Ezerovo", 
    "lat": "43.2018", 
    "lng": "27.7671", 
    "country": "Bulgaria", 
    "iso2": "BG", 
    "admin_name": "Varna", 
    "capital": "", 
    "population": "1760", 
    "population_proper": "1760"
  }, 
  {
    "city": "Graf Ignatievo", 
    "lat": "42.2818", 
    "lng": "24.7329", 
    "country": "Bulgaria", 
    "iso2": "BG", 
    "admin_name": "Plovdiv", 
    "capital": "", 
    "population": "1728", 
    "population_proper": "1728"
  }, 
  {
    "city": "Seliminovo", 
    "lat": "42.6434", 
    "lng": "26.1526", 
    "country": "Bulgaria", 
    "iso2": "BG", 
    "admin_name": "Sliven", 
    "capital": "", 
    "population": "1722", 
    "population_proper": "1722"
  }, 
  {
    "city": "Uzundzhovo", 
    "lat": "41.9631", 
    "lng": "25.6558", 
    "country": "Bulgaria", 
    "iso2": "BG", 
    "admin_name": "Haskovo", 
    "capital": "", 
    "population": "1720", 
    "population_proper": "1720"
  }, 
  {
    "city": "Busmantsi", 
    "lat": "42.6833", 
    "lng": "23.4333", 
    "country": "Bulgaria", 
    "iso2": "BG", 
    "admin_name": "Sofia-Grad", 
    "capital": "", 
    "population": "1674", 
    "population_proper": "1669"
  }, 
  {
    "city": "Polikrayshte", 
    "lat": "43.1807", 
    "lng": "25.6199", 
    "country": "Bulgaria", 
    "iso2": "BG", 
    "admin_name": "Veliko Tarnovo", 
    "capital": "", 
    "population": "1674", 
    "population_proper": "1639"
  }, 
  {
    "city": "Lesnovo", 
    "lat": "42.6431", 
    "lng": "23.6402", 
    "country": "Bulgaria", 
    "iso2": "BG", 
    "admin_name": "Sofia", 
    "capital": "", 
    "population": "1667", 
    "population_proper": "1648"
  }, 
  {
    "city": "Merichleri", 
    "lat": "42.1333", 
    "lng": "25.5000", 
    "country": "Bulgaria", 
    "iso2": "BG", 
    "admin_name": "Haskovo", 
    "capital": "", 
    "population": "1659", 
    "population_proper": "1642"
  }, 
  {
    "city": "Lyuben Karavelovo", 
    "lat": "43.3428", 
    "lng": "27.7756", 
    "country": "Bulgaria", 
    "iso2": "BG", 
    "admin_name": "Varna", 
    "capital": "", 
    "population": "1650", 
    "population_proper": "1650"
  }, 
  {
    "city": "Divotino", 
    "lat": "42.6555", 
    "lng": "23.0496", 
    "country": "Bulgaria", 
    "iso2": "BG", 
    "admin_name": "Pernik", 
    "capital": "", 
    "population": "1645", 
    "population_proper": "1636"
  }, 
  {
    "city": "Byal Izvor", 
    "lat": "41.5461", 
    "lng": "25.0738", 
    "country": "Bulgaria", 
    "iso2": "BG", 
    "admin_name": "Kardzhali", 
    "capital": "", 
    "population": "1645", 
    "population_proper": "1645"
  }, 
  {
    "city": "Kermen", 
    "lat": "42.5040", 
    "lng": "26.2560", 
    "country": "Bulgaria", 
    "iso2": "BG", 
    "admin_name": "Sliven", 
    "capital": "", 
    "population": "1624", 
    "population_proper": "1593"
  }, 
  {
    "city": "Ravnets", 
    "lat": "42.5145", 
    "lng": "27.2405", 
    "country": "Bulgaria", 
    "iso2": "BG", 
    "admin_name": "Burgas", 
    "capital": "", 
    "population": "1610", 
    "population_proper": "1610"
  }, 
  {
    "city": "Kukorevo", 
    "lat": "42.4477", 
    "lng": "26.5331", 
    "country": "Bulgaria", 
    "iso2": "BG", 
    "admin_name": "Yambol", 
    "capital": "", 
    "population": "1599", 
    "population_proper": "1587"
  }, 
  {
    "city": "Samoranovo", 
    "lat": "42.2655", 
    "lng": "23.1583", 
    "country": "Bulgaria", 
    "iso2": "BG", 
    "admin_name": "Kyustendil", 
    "capital": "", 
    "population": "1580", 
    "population_proper": "1580"
  }, 
  {
    "city": "Stozher", 
    "lat": "43.4500", 
    "lng": "27.8167", 
    "country": "Bulgaria", 
    "iso2": "BG", 
    "admin_name": "Dobrich", 
    "capital": "", 
    "population": "1550", 
    "population_proper": "1540"
  }, 
  {
    "city": "Dzhulyunitsa", 
    "lat": "43.1374", 
    "lng": "25.9017", 
    "country": "Bulgaria", 
    "iso2": "BG", 
    "admin_name": "Veliko Tarnovo", 
    "capital": "", 
    "population": "1533", 
    "population_proper": "1504"
  }, 
  {
    "city": "Zheleznitsa", 
    "lat": "42.5333", 
    "lng": "23.3667", 
    "country": "Bulgaria", 
    "iso2": "BG", 
    "admin_name": "Sofia-Grad", 
    "capital": "", 
    "population": "1526", 
    "population_proper": "1526"
  }, 
  {
    "city": "Slokoshtitsa", 
    "lat": "42.2633", 
    "lng": "22.7019", 
    "country": "Bulgaria", 
    "iso2": "BG", 
    "admin_name": "Kyustendil", 
    "capital": "", 
    "population": "1510", 
    "population_proper": "1494"
  }, 
  {
    "city": "Orizare", 
    "lat": "42.7498", 
    "lng": "27.6204", 
    "country": "Bulgaria", 
    "iso2": "BG", 
    "admin_name": "Burgas", 
    "capital": "", 
    "population": "1496", 
    "population_proper": "1487"
  }, 
  {
    "city": "Negovan", 
    "lat": "42.7695", 
    "lng": "23.4041", 
    "country": "Bulgaria", 
    "iso2": "BG", 
    "admin_name": "Sofia-Grad", 
    "capital": "", 
    "population": "1489", 
    "population_proper": "1489"
  }, 
  {
    "city": "Trivoditsi", 
    "lat": "42.1358", 
    "lng": "24.4661", 
    "country": "Bulgaria", 
    "iso2": "BG", 
    "admin_name": "Plovdiv", 
    "capital": "", 
    "population": "1478", 
    "population_proper": "1478"
  }, 
  {
    "city": "Krepost", 
    "lat": "42.0081", 
    "lng": "25.5900", 
    "country": "Bulgaria", 
    "iso2": "BG", 
    "admin_name": "Haskovo", 
    "capital": "", 
    "population": "1475", 
    "population_proper": "1475"
  }, 
  {
    "city": "Grivitsa", 
    "lat": "43.4132", 
    "lng": "24.7054", 
    "country": "Bulgaria", 
    "iso2": "BG", 
    "admin_name": "Pleven", 
    "capital": "", 
    "population": "1471", 
    "population_proper": "1449"
  }, 
  {
    "city": "Studena", 
    "lat": "42.5439", 
    "lng": "23.1209", 
    "country": "Bulgaria", 
    "iso2": "BG", 
    "admin_name": "Pernik", 
    "capital": "", 
    "population": "1461", 
    "population_proper": "1461"
  }, 
  {
    "city": "Bistritsa", 
    "lat": "42.2393", 
    "lng": "23.1575", 
    "country": "Bulgaria", 
    "iso2": "BG", 
    "admin_name": "Kyustendil", 
    "capital": "", 
    "population": "1453", 
    "population_proper": "1453"
  }, 
  {
    "city": "Stratsin", 
    "lat": "42.7726", 
    "lng": "27.4710", 
    "country": "Bulgaria", 
    "iso2": "BG", 
    "admin_name": "Burgas", 
    "capital": "", 
    "population": "1415", 
    "population_proper": "1403"
  }, 
  {
    "city": "Mirovyane", 
    "lat": "42.7833", 
    "lng": "23.3000", 
    "country": "Bulgaria", 
    "iso2": "BG", 
    "admin_name": "Sofia-Grad", 
    "capital": "", 
    "population": "1414", 
    "population_proper": "1414"
  }, 
  {
    "city": "Saraya", 
    "lat": "42.2511", 
    "lng": "24.3203", 
    "country": "Bulgaria", 
    "iso2": "BG", 
    "admin_name": "Pazardzhik", 
    "capital": "", 
    "population": "1405", 
    "population_proper": "1405"
  }, 
  {
    "city": "Planinitsa", 
    "lat": "42.8916", 
    "lng": "27.1551", 
    "country": "Bulgaria", 
    "iso2": "BG", 
    "admin_name": "Burgas", 
    "capital": "", 
    "population": "1402", 
    "population_proper": "1402"
  }, 
  {
    "city": "Krivina", 
    "lat": "42.6833", 
    "lng": "23.4667", 
    "country": "Bulgaria", 
    "iso2": "BG", 
    "admin_name": "Sofia-Grad", 
    "capital": "", 
    "population": "1368", 
    "population_proper": "1368"
  }, 
  {
    "city": "Karageorgievo", 
    "lat": "42.7357", 
    "lng": "27.1845", 
    "country": "Bulgaria", 
    "iso2": "BG", 
    "admin_name": "Burgas", 
    "capital": "", 
    "population": "1351", 
    "population_proper": "1344"
  }, 
  {
    "city": "Prosenik", 
    "lat": "42.7982", 
    "lng": "27.4513", 
    "country": "Bulgaria", 
    "iso2": "BG", 
    "admin_name": "Burgas", 
    "capital": "", 
    "population": "1335", 
    "population_proper": "1335"
  }, 
  {
    "city": "Vinogradets", 
    "lat": "42.2861", 
    "lng": "24.1302", 
    "country": "Bulgaria", 
    "iso2": "BG", 
    "admin_name": "Pazardzhik", 
    "capital": "", 
    "population": "1320", 
    "population_proper": "1315"
  }, 
  {
    "city": "Tsarev Brod", 
    "lat": "43.3307", 
    "lng": "27.0114", 
    "country": "Bulgaria", 
    "iso2": "BG", 
    "admin_name": "Shumen", 
    "capital": "", 
    "population": "1319", 
    "population_proper": "1301"
  }, 
  {
    "city": "Tankovo", 
    "lat": "42.6946", 
    "lng": "27.6496", 
    "country": "Bulgaria", 
    "iso2": "BG", 
    "admin_name": "Burgas", 
    "capital": "", 
    "population": "1312", 
    "population_proper": "1312"
  }, 
  {
    "city": "Maglen", 
    "lat": "42.7273", 
    "lng": "27.3702", 
    "country": "Bulgaria", 
    "iso2": "BG", 
    "admin_name": "Burgas", 
    "capital": "", 
    "population": "1311", 
    "population_proper": "1311"
  }, 
  {
    "city": "Tranak", 
    "lat": "42.9442", 
    "lng": "27.2117", 
    "country": "Bulgaria", 
    "iso2": "BG", 
    "admin_name": "Burgas", 
    "capital": "", 
    "population": "1298", 
    "population_proper": "1298"
  }, 
  {
    "city": "Razhitsa", 
    "lat": "42.7826", 
    "lng": "27.3955", 
    "country": "Bulgaria", 
    "iso2": "BG", 
    "admin_name": "Burgas", 
    "capital": "", 
    "population": "1287", 
    "population_proper": "1287"
  }, 
  {
    "city": "Dzherman", 
    "lat": "42.2263", 
    "lng": "23.0811", 
    "country": "Bulgaria", 
    "iso2": "BG", 
    "admin_name": "Kyustendil", 
    "capital": "", 
    "population": "1282", 
    "population_proper": "1262"
  }, 
  {
    "city": "Shipka", 
    "lat": "42.7000", 
    "lng": "25.3833", 
    "country": "Bulgaria", 
    "iso2": "BG", 
    "admin_name": "Stara Zagora", 
    "capital": "", 
    "population": "1275", 
    "population_proper": "1275"
  }, 
  {
    "city": "Basarbovo", 
    "lat": "43.7763", 
    "lng": "25.9508", 
    "country": "Bulgaria", 
    "iso2": "BG", 
    "admin_name": "Ruse", 
    "capital": "", 
    "population": "1275", 
    "population_proper": "1267"
  }, 
  {
    "city": "Karabunar", 
    "lat": "42.2622", 
    "lng": "24.1715", 
    "country": "Bulgaria", 
    "iso2": "BG", 
    "admin_name": "Pazardzhik", 
    "capital": "", 
    "population": "1269", 
    "population_proper": "1266"
  }, 
  {
    "city": "Benkovski", 
    "lat": "42.2082", 
    "lng": "24.6499", 
    "country": "Bulgaria", 
    "iso2": "BG", 
    "admin_name": "Plovdiv", 
    "capital": "", 
    "population": "1263", 
    "population_proper": "1255"
  }, 
  {
    "city": "Kosharitsa", 
    "lat": "42.7516", 
    "lng": "27.6907", 
    "country": "Bulgaria", 
    "iso2": "BG", 
    "admin_name": "Burgas", 
    "capital": "", 
    "population": "1260", 
    "population_proper": "1260"
  }, 
  {
    "city": "Konstantinovo", 
    "lat": "43.1627", 
    "lng": "27.7806", 
    "country": "Bulgaria", 
    "iso2": "BG", 
    "admin_name": "Varna", 
    "capital": "", 
    "population": "1259", 
    "population_proper": "1255"
  }, 
  {
    "city": "Yabalchevo", 
    "lat": "42.7946", 
    "lng": "27.2540", 
    "country": "Bulgaria", 
    "iso2": "BG", 
    "admin_name": "Burgas", 
    "capital": "", 
    "population": "1253", 
    "population_proper": "1253"
  }, 
  {
    "city": "Galabets", 
    "lat": "42.7689", 
    "lng": "27.5287", 
    "country": "Bulgaria", 
    "iso2": "BG", 
    "admin_name": "Burgas", 
    "capital": "", 
    "population": "1252", 
    "population_proper": "1252"
  }, 
  {
    "city": "Chervena Voda", 
    "lat": "43.8056", 
    "lng": "26.0989", 
    "country": "Bulgaria", 
    "iso2": "BG", 
    "admin_name": "Ruse", 
    "capital": "", 
    "population": "1250", 
    "population_proper": "1250"
  }, 
  {
    "city": "Veselinovo", 
    "lat": "42.5329", 
    "lng": "26.5448", 
    "country": "Bulgaria", 
    "iso2": "BG", 
    "admin_name": "Yambol", 
    "capital": "", 
    "population": "1227", 
    "population_proper": "1227"
  }, 
  {
    "city": "Bata", 
    "lat": "42.7363", 
    "lng": "27.4917", 
    "country": "Bulgaria", 
    "iso2": "BG", 
    "admin_name": "Burgas", 
    "capital": "", 
    "population": "1227", 
    "population_proper": "1227"
  }, 
  {
    "city": "Rudartsi", 
    "lat": "42.5809", 
    "lng": "23.1677", 
    "country": "Bulgaria", 
    "iso2": "BG", 
    "admin_name": "Pernik", 
    "capital": "", 
    "population": "1218", 
    "population_proper": "1218"
  }, 
  {
    "city": "Dolni Bogrov", 
    "lat": "42.7000", 
    "lng": "23.5000", 
    "country": "Bulgaria", 
    "iso2": "BG", 
    "admin_name": "Sofia-Grad", 
    "capital": "", 
    "population": "1215", 
    "population_proper": "1213"
  }, 
  {
    "city": "Aldomirovtsi", 
    "lat": "42.8484", 
    "lng": "22.9837", 
    "country": "Bulgaria", 
    "iso2": "BG", 
    "admin_name": "Sofia", 
    "capital": "", 
    "population": "1210", 
    "population_proper": "1208"
  }, 
  {
    "city": "Belogradets", 
    "lat": "43.3521", 
    "lng": "27.3312", 
    "country": "Bulgaria", 
    "iso2": "BG", 
    "admin_name": "Varna", 
    "capital": "", 
    "population": "1208", 
    "population_proper": "1192"
  }, 
  {
    "city": "Karapelit", 
    "lat": "43.6500", 
    "lng": "27.5667", 
    "country": "Bulgaria", 
    "iso2": "BG", 
    "admin_name": "Dobrich", 
    "capital": "", 
    "population": "1201", 
    "population_proper": "1201"
  }, 
  {
    "city": "Novo Selo", 
    "lat": "43.8022", 
    "lng": "26.1932", 
    "country": "Bulgaria", 
    "iso2": "BG", 
    "admin_name": "Ruse", 
    "capital": "", 
    "population": "1199", 
    "population_proper": "1199"
  }, 
  {
    "city": "Sandrovo", 
    "lat": "43.9327", 
    "lng": "26.1149", 
    "country": "Bulgaria", 
    "iso2": "BG", 
    "admin_name": "Ruse", 
    "capital": "", 
    "population": "1186", 
    "population_proper": "1183"
  }, 
  {
    "city": "Yabalkovo", 
    "lat": "42.0699", 
    "lng": "25.4411", 
    "country": "Bulgaria", 
    "iso2": "BG", 
    "admin_name": "Haskovo", 
    "capital": "", 
    "population": "1171", 
    "population_proper": "1167"
  }, 
  {
    "city": "Gabrovnitsa", 
    "lat": "43.5345", 
    "lng": "23.2646", 
    "country": "Bulgaria", 
    "iso2": "BG", 
    "admin_name": "Montana", 
    "capital": "", 
    "population": "1170", 
    "population_proper": "1170"
  }, 
  {
    "city": "Vaglen", 
    "lat": "43.2944", 
    "lng": "27.8488", 
    "country": "Bulgaria", 
    "iso2": "BG", 
    "admin_name": "Varna", 
    "capital": "", 
    "population": "1167", 
    "population_proper": "1155"
  }, 
  {
    "city": "Vardun", 
    "lat": "43.1340", 
    "lng": "26.5309", 
    "country": "Bulgaria", 
    "iso2": "BG", 
    "admin_name": "Targovishte", 
    "capital": "", 
    "population": "1152", 
    "population_proper": "1152"
  }, 
  {
    "city": "Marchaevo", 
    "lat": "42.5995", 
    "lng": "23.1703", 
    "country": "Bulgaria", 
    "iso2": "BG", 
    "admin_name": "Sofia-Grad", 
    "capital": "", 
    "population": "1148", 
    "population_proper": "1144"
  }, 
  {
    "city": "Banitsa", 
    "lat": "43.3439", 
    "lng": "23.6902", 
    "country": "Bulgaria", 
    "iso2": "BG", 
    "admin_name": "Vratsa", 
    "capital": "", 
    "population": "1148", 
    "population_proper": "1131"
  }, 
  {
    "city": "Gorni Bogrov", 
    "lat": "42.7167", 
    "lng": "23.5333", 
    "country": "Bulgaria", 
    "iso2": "BG", 
    "admin_name": "Sofia-Grad", 
    "capital": "", 
    "population": "1147", 
    "population_proper": "1147"
  }, 
  {
    "city": "Semerdzhievo", 
    "lat": "43.7701", 
    "lng": "26.1703", 
    "country": "Bulgaria", 
    "iso2": "BG", 
    "admin_name": "Ruse", 
    "capital": "", 
    "population": "1140", 
    "population_proper": "1123"
  }, 
  {
    "city": "Zaychar", 
    "lat": "42.7780", 
    "lng": "27.1697", 
    "country": "Bulgaria", 
    "iso2": "BG", 
    "admin_name": "Burgas", 
    "capital": "", 
    "population": "1140", 
    "population_proper": "1132"
  }, 
  {
    "city": "Voyvodovo", 
    "lat": "41.8588", 
    "lng": "25.5472", 
    "country": "Bulgaria", 
    "iso2": "BG", 
    "admin_name": "Haskovo", 
    "capital": "", 
    "population": "1130", 
    "population_proper": "1130"
  }, 
  {
    "city": "Malevo", 
    "lat": "41.8580", 
    "lng": "25.6301", 
    "country": "Bulgaria", 
    "iso2": "BG", 
    "admin_name": "Haskovo", 
    "capital": "", 
    "population": "1127", 
    "population_proper": "1127"
  }, 
  {
    "city": "Opalchensko", 
    "lat": "41.6022", 
    "lng": "25.3595", 
    "country": "Bulgaria", 
    "iso2": "BG", 
    "admin_name": "Kardzhali", 
    "capital": "", 
    "population": "1126", 
    "population_proper": "1126"
  }, 
  {
    "city": "Zvezditsa", 
    "lat": "43.1538", 
    "lng": "27.8372", 
    "country": "Bulgaria", 
    "iso2": "BG", 
    "admin_name": "Varna", 
    "capital": "", 
    "population": "1119", 
    "population_proper": "1119"
  }, 
  {
    "city": "Marinka", 
    "lat": "42.4015", 
    "lng": "27.4821", 
    "country": "Bulgaria", 
    "iso2": "BG", 
    "admin_name": "Burgas", 
    "capital": "", 
    "population": "1112", 
    "population_proper": "1112"
  }, 
  {
    "city": "Boboshevo", 
    "lat": "42.1500", 
    "lng": "23.0167", 
    "country": "Bulgaria", 
    "iso2": "BG", 
    "admin_name": "Kyustendil", 
    "capital": "", 
    "population": "1109", 
    "population_proper": "1081"
  }, 
  {
    "city": "Gyulyovtsa", 
    "lat": "42.7659", 
    "lng": "27.5998", 
    "country": "Bulgaria", 
    "iso2": "BG", 
    "admin_name": "Burgas", 
    "capital": "", 
    "population": "1086", 
    "population_proper": "1086"
  }, 
  {
    "city": "Gluhar", 
    "lat": "41.5953", 
    "lng": "25.3935", 
    "country": "Bulgaria", 
    "iso2": "BG", 
    "admin_name": "Kardzhali", 
    "capital": "", 
    "population": "1084", 
    "population_proper": "1084"
  }, 
  {
    "city": "Hadzhievo", 
    "lat": "42.1424", 
    "lng": "24.4555", 
    "country": "Bulgaria", 
    "iso2": "BG", 
    "admin_name": "Pazardzhik", 
    "capital": "", 
    "population": "1071", 
    "population_proper": "1071"
  }, 
  {
    "city": "Pisarevo", 
    "lat": "43.1558", 
    "lng": "25.7902", 
    "country": "Bulgaria", 
    "iso2": "BG", 
    "admin_name": "Veliko Tarnovo", 
    "capital": "", 
    "population": "1070", 
    "population_proper": "1066"
  }, 
  {
    "city": "Vaklinovo", 
    "lat": "41.5959", 
    "lng": "24.0636", 
    "country": "Bulgaria", 
    "iso2": "BG", 
    "admin_name": "Blagoevgrad", 
    "capital": "", 
    "population": "1067", 
    "population_proper": "1067"
  }, 
  {
    "city": "Varbitsa", 
    "lat": "43.1809", 
    "lng": "25.8290", 
    "country": "Bulgaria", 
    "iso2": "BG", 
    "admin_name": "Veliko Tarnovo", 
    "capital": "", 
    "population": "1066", 
    "population_proper": "1064"
  }, 
  {
    "city": "Kladnitsa", 
    "lat": "42.5680", 
    "lng": "23.1796", 
    "country": "Bulgaria", 
    "iso2": "BG", 
    "admin_name": "Pernik", 
    "capital": "", 
    "population": "1062", 
    "population_proper": "1062"
  }, 
  {
    "city": "Patalenitsa", 
    "lat": "42.1220", 
    "lng": "24.2022", 
    "country": "Bulgaria", 
    "iso2": "BG", 
    "admin_name": "Pazardzhik", 
    "capital": "", 
    "population": "1061", 
    "population_proper": "1047"
  }, 
  {
    "city": "Dolen", 
    "lat": "41.4238", 
    "lng": "25.1320", 
    "country": "Bulgaria", 
    "iso2": "BG", 
    "admin_name": "Smolyan", 
    "capital": "", 
    "population": "1058", 
    "population_proper": "1058"
  }, 
  {
    "city": "Dobromir", 
    "lat": "42.9522", 
    "lng": "27.2872", 
    "country": "Bulgaria", 
    "iso2": "BG", 
    "admin_name": "Burgas", 
    "capital": "", 
    "population": "1053", 
    "population_proper": "1042"
  }, 
  {
    "city": "Dobri Dyal", 
    "lat": "43.1112", 
    "lng": "25.8330", 
    "country": "Bulgaria", 
    "iso2": "BG", 
    "admin_name": "Veliko Tarnovo", 
    "capital": "", 
    "population": "1052", 
    "population_proper": "1043"
  }, 
  {
    "city": "Gorski Izvor", 
    "lat": "42.0214", 
    "lng": "25.4250", 
    "country": "Bulgaria", 
    "iso2": "BG", 
    "admin_name": "Haskovo", 
    "capital": "", 
    "population": "1046", 
    "population_proper": "1046"
  }, 
  {
    "city": "Stefanovo", 
    "lat": "43.4833", 
    "lng": "27.8667", 
    "country": "Bulgaria", 
    "iso2": "BG", 
    "admin_name": "Dobrich", 
    "capital": "", 
    "population": "1044", 
    "population_proper": "1044"
  }, 
  {
    "city": "Borovo", 
    "lat": "41.5932", 
    "lng": "23.7371", 
    "country": "Bulgaria", 
    "iso2": "BG", 
    "admin_name": "Blagoevgrad", 
    "capital": "", 
    "population": "1043", 
    "population_proper": "1043"
  }, 
  {
    "city": "Cherven Breg", 
    "lat": "42.3103", 
    "lng": "23.1742", 
    "country": "Bulgaria", 
    "iso2": "BG", 
    "admin_name": "Kyustendil", 
    "capital": "", 
    "population": "1039", 
    "population_proper": "1025"
  }, 
  {
    "city": "Snyagovo", 
    "lat": "42.8470", 
    "lng": "27.2775", 
    "country": "Bulgaria", 
    "iso2": "BG", 
    "admin_name": "Burgas", 
    "capital": "", 
    "population": "1039", 
    "population_proper": "1039"
  }, 
  {
    "city": "Krastava", 
    "lat": "41.9599", 
    "lng": "23.8208", 
    "country": "Bulgaria", 
    "iso2": "BG", 
    "admin_name": "Pazardzhik", 
    "capital": "", 
    "population": "1038", 
    "population_proper": "1034"
  }, 
  {
    "city": "Kadievo", 
    "lat": "42.1314", 
    "lng": "24.6072", 
    "country": "Bulgaria", 
    "iso2": "BG", 
    "admin_name": "Plovdiv", 
    "capital": "", 
    "population": "1037", 
    "population_proper": "1021"
  }, 
  {
    "city": "Voysil", 
    "lat": "42.2167", 
    "lng": "24.6333", 
    "country": "Bulgaria", 
    "iso2": "BG", 
    "admin_name": "Plovdiv", 
    "capital": "", 
    "population": "1036", 
    "population_proper": "1036"
  }, 
  {
    "city": "Vresovo", 
    "lat": "42.8124", 
    "lng": "27.1985", 
    "country": "Bulgaria", 
    "iso2": "BG", 
    "admin_name": "Burgas", 
    "capital": "", 
    "population": "1022", 
    "population_proper": "1022"
  }, 
  {
    "city": "Vinitsa", 
    "lat": "42.1353", 
    "lng": "25.1363", 
    "country": "Bulgaria", 
    "iso2": "BG", 
    "admin_name": "Plovdiv", 
    "capital": "", 
    "population": "1018", 
    "population_proper": "1018"
  }, 
  {
    "city": "Mortagonovo", 
    "lat": "43.5238", 
    "lng": "26.6439", 
    "country": "Bulgaria", 
    "iso2": "BG", 
    "admin_name": "Razgrad", 
    "capital": "", 
    "population": "1016", 
    "population_proper": "1013"
  }, 
  {
    "city": "Izvorsko", 
    "lat": "43.2952", 
    "lng": "27.7694", 
    "country": "Bulgaria", 
    "iso2": "BG", 
    "admin_name": "Varna", 
    "capital": "", 
    "population": "1016", 
    "population_proper": "1016"
  }, 
  {
    "city": "Dobroslavtsi", 
    "lat": "42.8167", 
    "lng": "23.2833", 
    "country": "Bulgaria", 
    "iso2": "BG", 
    "admin_name": "Sofia-Grad", 
    "capital": "", 
    "population": "1004", 
    "population_proper": "1004"
  }
]